header: 
  seq: 102
  stamp: 
    secs: 1005
    nsecs: 206000000
  frame_id: ''
pt_1: 
  x: 1.3656470114
  y: -0.656312792559
  z: 0.0
pt_2: 
  x: 4.15123822827
  y: -0.673568642316
  z: 0.0
pt_3: 
  x: 1.34802018204
  y: 0.653152800364
  z: 0.0
pt_4: 
  x: 4.147389449
  y: 0.689325195571
  z: 0.0
pt_5: 
  x: 1.35683359672
  y: -0.00157999609738
  z: 0.0
pt_6: 
  x: 4.14931383863
  y: 0.00787827662737
  z: 0.0
landmark_check: 1
---
header: 
  seq: 103
  stamp: 
    secs: 1005
    nsecs: 306000000
  frame_id: ''
pt_1: 
  x: 1.3656470114
  y: -0.656312792559
  z: 0.0
pt_2: 
  x: 4.15123822827
  y: -0.673568642316
  z: 0.0
pt_3: 
  x: 1.34802018204
  y: 0.653152800364
  z: 0.0
pt_4: 
  x: 4.147389449
  y: 0.689325195571
  z: 0.0
pt_5: 
  x: 1.35683359672
  y: -0.00157999609738
  z: 0.0
pt_6: 
  x: 4.14931383863
  y: 0.00787827662737
  z: 0.0
landmark_check: 1
---
header: 
  seq: 104
  stamp: 
    secs: 1005
    nsecs: 406000000
  frame_id: ''
pt_1: 
  x: 1.3656470114
  y: -0.656312792559
  z: 0.0
pt_2: 
  x: 4.15123822827
  y: -0.673568642316
  z: 0.0
pt_3: 
  x: 1.34802018204
  y: 0.653152800364
  z: 0.0
pt_4: 
  x: 4.147389449
  y: 0.689325195571
  z: 0.0
pt_5: 
  x: 1.35683359672
  y: -0.00157999609738
  z: 0.0
pt_6: 
  x: 4.14931383863
  y: 0.00787827662737
  z: 0.0
landmark_check: 1
---
header: 
  seq: 105
  stamp: 
    secs: 1005
    nsecs: 506000000
  frame_id: ''
pt_1: 
  x: 1.3656470114
  y: -0.656312792559
  z: 0.0
pt_2: 
  x: 4.15123822827
  y: -0.673568642316
  z: 0.0
pt_3: 
  x: 1.34802018204
  y: 0.653152800364
  z: 0.0
pt_4: 
  x: 4.147389449
  y: 0.689325195571
  z: 0.0
pt_5: 
  x: 1.35683359672
  y: -0.00157999609738
  z: 0.0
pt_6: 
  x: 4.14931383863
  y: 0.00787827662737
  z: 0.0
landmark_check: 1
---
header: 
  seq: 106
  stamp: 
    secs: 1005
    nsecs: 606000000
  frame_id: ''
pt_1: 
  x: 1.3656470114
  y: -0.656312792559
  z: 0.0
pt_2: 
  x: 4.15123822827
  y: -0.673568642316
  z: 0.0
pt_3: 
  x: 1.34802018204
  y: 0.653152800364
  z: 0.0
pt_4: 
  x: 4.147389449
  y: 0.689325195571
  z: 0.0
pt_5: 
  x: 1.35683359672
  y: -0.00157999609738
  z: 0.0
pt_6: 
  x: 4.14931383863
  y: 0.00787827662737
  z: 0.0
landmark_check: 1
---
header: 
  seq: 107
  stamp: 
    secs: 1005
    nsecs: 706000000
  frame_id: ''
pt_1: 
  x: 1.3656470114
  y: -0.656312792559
  z: 0.0
pt_2: 
  x: 4.15123822827
  y: -0.673568642316
  z: 0.0
pt_3: 
  x: 1.34802018204
  y: 0.653152800364
  z: 0.0
pt_4: 
  x: 4.147389449
  y: 0.689325195571
  z: 0.0
pt_5: 
  x: 1.35683359672
  y: -0.00157999609738
  z: 0.0
pt_6: 
  x: 4.14931383863
  y: 0.00787827662737
  z: 0.0
landmark_check: 1
---
header: 
  seq: 108
  stamp: 
    secs: 1005
    nsecs: 806000000
  frame_id: ''
pt_1: 
  x: 1.3656470114
  y: -0.656312792559
  z: 0.0
pt_2: 
  x: 4.15123822827
  y: -0.673568642316
  z: 0.0
pt_3: 
  x: 1.34802018204
  y: 0.653152800364
  z: 0.0
pt_4: 
  x: 4.147389449
  y: 0.689325195571
  z: 0.0
pt_5: 
  x: 1.35683359672
  y: -0.00157999609738
  z: 0.0
pt_6: 
  x: 4.14931383863
  y: 0.00787827662737
  z: 0.0
landmark_check: 1
---
header: 
  seq: 109
  stamp: 
    secs: 1005
    nsecs: 906000000
  frame_id: ''
pt_1: 
  x: 1.3656470114
  y: -0.656312792559
  z: 0.0
pt_2: 
  x: 4.15123822827
  y: -0.673568642316
  z: 0.0
pt_3: 
  x: 1.34802018204
  y: 0.653152800364
  z: 0.0
pt_4: 
  x: 4.147389449
  y: 0.689325195571
  z: 0.0
pt_5: 
  x: 1.35683359672
  y: -0.00157999609738
  z: 0.0
pt_6: 
  x: 4.14931383863
  y: 0.00787827662737
  z: 0.0
landmark_check: 1
---
header: 
  seq: 110
  stamp: 
    secs: 1006
    nsecs:   7000000
  frame_id: ''
pt_1: 
  x: 1.3656470114
  y: -0.656312792559
  z: 0.0
pt_2: 
  x: 4.15123822827
  y: -0.673568642316
  z: 0.0
pt_3: 
  x: 1.34802018204
  y: 0.653152800364
  z: 0.0
pt_4: 
  x: 4.147389449
  y: 0.689325195571
  z: 0.0
pt_5: 
  x: 1.35683359672
  y: -0.00157999609738
  z: 0.0
pt_6: 
  x: 4.14931383863
  y: 0.00787827662737
  z: 0.0
landmark_check: 1
---
header: 
  seq: 111
  stamp: 
    secs: 1006
    nsecs: 106000000
  frame_id: ''
pt_1: 
  x: 1.3656470114
  y: -0.656312792559
  z: 0.0
pt_2: 
  x: 4.15123822827
  y: -0.673568642316
  z: 0.0
pt_3: 
  x: 1.34802018204
  y: 0.653152800364
  z: 0.0
pt_4: 
  x: 4.147389449
  y: 0.689325195571
  z: 0.0
pt_5: 
  x: 1.35683359672
  y: -0.00157999609738
  z: 0.0
pt_6: 
  x: 4.14931383863
  y: 0.00787827662737
  z: 0.0
landmark_check: 1
---
header: 
  seq: 112
  stamp: 
    secs: 1006
    nsecs: 206000000
  frame_id: ''
pt_1: 
  x: 1.3656470114
  y: -0.656312792559
  z: 0.0
pt_2: 
  x: 4.15123822827
  y: -0.673568642316
  z: 0.0
pt_3: 
  x: 1.34802018204
  y: 0.653152800364
  z: 0.0
pt_4: 
  x: 4.147389449
  y: 0.689325195571
  z: 0.0
pt_5: 
  x: 1.35683359672
  y: -0.00157999609738
  z: 0.0
pt_6: 
  x: 4.14931383863
  y: 0.00787827662737
  z: 0.0
landmark_check: 1
---
header: 
  seq: 113
  stamp: 
    secs: 1006
    nsecs: 306000000
  frame_id: ''
pt_1: 
  x: 1.3656470114
  y: -0.656312792559
  z: 0.0
pt_2: 
  x: 4.15123822827
  y: -0.673568642316
  z: 0.0
pt_3: 
  x: 1.34802018204
  y: 0.653152800364
  z: 0.0
pt_4: 
  x: 4.147389449
  y: 0.689325195571
  z: 0.0
pt_5: 
  x: 1.35683359672
  y: -0.00157999609738
  z: 0.0
pt_6: 
  x: 4.14931383863
  y: 0.00787827662737
  z: 0.0
landmark_check: 1
---
header: 
  seq: 114
  stamp: 
    secs: 1006
    nsecs: 407000000
  frame_id: ''
pt_1: 
  x: 1.3656470114
  y: -0.656312792559
  z: 0.0
pt_2: 
  x: 4.15123822827
  y: -0.673568642316
  z: 0.0
pt_3: 
  x: 1.34802018204
  y: 0.653152800364
  z: 0.0
pt_4: 
  x: 4.147389449
  y: 0.689325195571
  z: 0.0
pt_5: 
  x: 1.35683359672
  y: -0.00157999609738
  z: 0.0
pt_6: 
  x: 4.14931383863
  y: 0.00787827662737
  z: 0.0
landmark_check: 1
---
header: 
  seq: 115
  stamp: 
    secs: 1006
    nsecs: 506000000
  frame_id: ''
pt_1: 
  x: 1.3656470114
  y: -0.656312792559
  z: 0.0
pt_2: 
  x: 4.15123822827
  y: -0.673568642316
  z: 0.0
pt_3: 
  x: 1.34802018204
  y: 0.653152800364
  z: 0.0
pt_4: 
  x: 4.147389449
  y: 0.689325195571
  z: 0.0
pt_5: 
  x: 1.35683359672
  y: -0.00157999609738
  z: 0.0
pt_6: 
  x: 4.14931383863
  y: 0.00787827662737
  z: 0.0
landmark_check: 1
---
header: 
  seq: 116
  stamp: 
    secs: 1006
    nsecs: 606000000
  frame_id: ''
pt_1: 
  x: 1.3656470114
  y: -0.656312792559
  z: 0.0
pt_2: 
  x: 4.15123822827
  y: -0.673568642316
  z: 0.0
pt_3: 
  x: 1.34802018204
  y: 0.653152800364
  z: 0.0
pt_4: 
  x: 4.147389449
  y: 0.689325195571
  z: 0.0
pt_5: 
  x: 1.35683359672
  y: -0.00157999609738
  z: 0.0
pt_6: 
  x: 4.14931383863
  y: 0.00787827662737
  z: 0.0
landmark_check: 1
---
header: 
  seq: 117
  stamp: 
    secs: 1006
    nsecs: 706000000
  frame_id: ''
pt_1: 
  x: 1.3656470114
  y: -0.656312792559
  z: 0.0
pt_2: 
  x: 4.15123822827
  y: -0.673568642316
  z: 0.0
pt_3: 
  x: 1.34802018204
  y: 0.653152800364
  z: 0.0
pt_4: 
  x: 4.147389449
  y: 0.689325195571
  z: 0.0
pt_5: 
  x: 1.35683359672
  y: -0.00157999609738
  z: 0.0
pt_6: 
  x: 4.14931383863
  y: 0.00787827662737
  z: 0.0
landmark_check: 1
---
header: 
  seq: 118
  stamp: 
    secs: 1006
    nsecs: 806000000
  frame_id: ''
pt_1: 
  x: 1.3656470114
  y: -0.656312792559
  z: 0.0
pt_2: 
  x: 4.15123822827
  y: -0.673568642316
  z: 0.0
pt_3: 
  x: 1.34802018204
  y: 0.653152800364
  z: 0.0
pt_4: 
  x: 4.147389449
  y: 0.689325195571
  z: 0.0
pt_5: 
  x: 1.35683359672
  y: -0.00157999609738
  z: 0.0
pt_6: 
  x: 4.14931383863
  y: 0.00787827662737
  z: 0.0
landmark_check: 1
---
header: 
  seq: 119
  stamp: 
    secs: 1006
    nsecs: 906000000
  frame_id: ''
pt_1: 
  x: 1.3656470114
  y: -0.656312792559
  z: 0.0
pt_2: 
  x: 4.15123822827
  y: -0.673568642316
  z: 0.0
pt_3: 
  x: 1.34802018204
  y: 0.653152800364
  z: 0.0
pt_4: 
  x: 4.147389449
  y: 0.689325195571
  z: 0.0
pt_5: 
  x: 1.35683359672
  y: -0.00157999609738
  z: 0.0
pt_6: 
  x: 4.14931383863
  y: 0.00787827662737
  z: 0.0
landmark_check: 1
---
header: 
  seq: 120
  stamp: 
    secs: 1007
    nsecs:   6000000
  frame_id: ''
pt_1: 
  x: 1.3656470114
  y: -0.656312792559
  z: 0.0
pt_2: 
  x: 4.15123822827
  y: -0.673568642316
  z: 0.0
pt_3: 
  x: 1.34802018204
  y: 0.653152800364
  z: 0.0
pt_4: 
  x: 4.147389449
  y: 0.689325195571
  z: 0.0
pt_5: 
  x: 1.35683359672
  y: -0.00157999609738
  z: 0.0
pt_6: 
  x: 4.14931383863
  y: 0.00787827662737
  z: 0.0
landmark_check: 1
---
header: 
  seq: 121
  stamp: 
    secs: 1007
    nsecs: 106000000
  frame_id: ''
pt_1: 
  x: 1.3656470114
  y: -0.656312792559
  z: 0.0
pt_2: 
  x: 4.15123822827
  y: -0.673568642316
  z: 0.0
pt_3: 
  x: 1.34802018204
  y: 0.653152800364
  z: 0.0
pt_4: 
  x: 4.147389449
  y: 0.689325195571
  z: 0.0
pt_5: 
  x: 1.35683359672
  y: -0.00157999609738
  z: 0.0
pt_6: 
  x: 4.14931383863
  y: 0.00787827662737
  z: 0.0
landmark_check: 1
---
header: 
  seq: 122
  stamp: 
    secs: 1007
    nsecs: 206000000
  frame_id: ''
pt_1: 
  x: 1.3656470114
  y: -0.656312792559
  z: 0.0
pt_2: 
  x: 4.15123822827
  y: -0.673568642316
  z: 0.0
pt_3: 
  x: 1.34802018204
  y: 0.653152800364
  z: 0.0
pt_4: 
  x: 4.147389449
  y: 0.689325195571
  z: 0.0
pt_5: 
  x: 1.35683359672
  y: -0.00157999609738
  z: 0.0
pt_6: 
  x: 4.14931383863
  y: 0.00787827662737
  z: 0.0
landmark_check: 1
---
header: 
  seq: 123
  stamp: 
    secs: 1007
    nsecs: 307000000
  frame_id: ''
pt_1: 
  x: 1.3656470114
  y: -0.656312792559
  z: 0.0
pt_2: 
  x: 4.15123822827
  y: -0.673568642316
  z: 0.0
pt_3: 
  x: 1.34802018204
  y: 0.653152800364
  z: 0.0
pt_4: 
  x: 4.147389449
  y: 0.689325195571
  z: 0.0
pt_5: 
  x: 1.35683359672
  y: -0.00157999609738
  z: 0.0
pt_6: 
  x: 4.14931383863
  y: 0.00787827662737
  z: 0.0
landmark_check: 1
---
header: 
  seq: 124
  stamp: 
    secs: 1007
    nsecs: 406000000
  frame_id: ''
pt_1: 
  x: 1.3656470114
  y: -0.656312792559
  z: 0.0
pt_2: 
  x: 4.15123822827
  y: -0.673568642316
  z: 0.0
pt_3: 
  x: 1.34802018204
  y: 0.653152800364
  z: 0.0
pt_4: 
  x: 4.147389449
  y: 0.689325195571
  z: 0.0
pt_5: 
  x: 1.35683359672
  y: -0.00157999609738
  z: 0.0
pt_6: 
  x: 4.14931383863
  y: 0.00787827662737
  z: 0.0
landmark_check: 1
---
header: 
  seq: 125
  stamp: 
    secs: 1007
    nsecs: 506000000
  frame_id: ''
pt_1: 
  x: 1.3656470114
  y: -0.656312792559
  z: 0.0
pt_2: 
  x: 4.15123822827
  y: -0.673568642316
  z: 0.0
pt_3: 
  x: 1.34802018204
  y: 0.653152800364
  z: 0.0
pt_4: 
  x: 4.147389449
  y: 0.689325195571
  z: 0.0
pt_5: 
  x: 1.35683359672
  y: -0.00157999609738
  z: 0.0
pt_6: 
  x: 4.14931383863
  y: 0.00787827662737
  z: 0.0
landmark_check: 1
---
header: 
  seq: 126
  stamp: 
    secs: 1007
    nsecs: 606000000
  frame_id: ''
pt_1: 
  x: 1.3656470114
  y: -0.656312792559
  z: 0.0
pt_2: 
  x: 4.15123822827
  y: -0.673568642316
  z: 0.0
pt_3: 
  x: 1.34802018204
  y: 0.653152800364
  z: 0.0
pt_4: 
  x: 4.147389449
  y: 0.689325195571
  z: 0.0
pt_5: 
  x: 1.35683359672
  y: -0.00157999609738
  z: 0.0
pt_6: 
  x: 4.14931383863
  y: 0.00787827662737
  z: 0.0
landmark_check: 1
---
header: 
  seq: 127
  stamp: 
    secs: 1007
    nsecs: 706000000
  frame_id: ''
pt_1: 
  x: 1.3656470114
  y: -0.656312792559
  z: 0.0
pt_2: 
  x: 4.15123822827
  y: -0.673568642316
  z: 0.0
pt_3: 
  x: 1.34802018204
  y: 0.653152800364
  z: 0.0
pt_4: 
  x: 4.147389449
  y: 0.689325195571
  z: 0.0
pt_5: 
  x: 1.35683359672
  y: -0.00157999609738
  z: 0.0
pt_6: 
  x: 4.14931383863
  y: 0.00787827662737
  z: 0.0
landmark_check: 1
---
header: 
  seq: 128
  stamp: 
    secs: 1007
    nsecs: 806000000
  frame_id: ''
pt_1: 
  x: 1.3656470114
  y: -0.656312792559
  z: 0.0
pt_2: 
  x: 4.15123822827
  y: -0.673568642316
  z: 0.0
pt_3: 
  x: 1.34802018204
  y: 0.653152800364
  z: 0.0
pt_4: 
  x: 4.147389449
  y: 0.689325195571
  z: 0.0
pt_5: 
  x: 1.35683359672
  y: -0.00157999609738
  z: 0.0
pt_6: 
  x: 4.14931383863
  y: 0.00787827662737
  z: 0.0
landmark_check: 1
---
header: 
  seq: 129
  stamp: 
    secs: 1007
    nsecs: 907000000
  frame_id: ''
pt_1: 
  x: 1.3656470114
  y: -0.656312792559
  z: 0.0
pt_2: 
  x: 4.15123822827
  y: -0.673568642316
  z: 0.0
pt_3: 
  x: 1.34802018204
  y: 0.653152800364
  z: 0.0
pt_4: 
  x: 4.147389449
  y: 0.689325195571
  z: 0.0
pt_5: 
  x: 1.35683359672
  y: -0.00157999609738
  z: 0.0
pt_6: 
  x: 4.14931383863
  y: 0.00787827662737
  z: 0.0
landmark_check: 1
---
header: 
  seq: 130
  stamp: 
    secs: 1008
    nsecs:   6000000
  frame_id: ''
pt_1: 
  x: 1.3656470114
  y: -0.656312792559
  z: 0.0
pt_2: 
  x: 4.15123822827
  y: -0.673568642316
  z: 0.0
pt_3: 
  x: 1.34802018204
  y: 0.653152800364
  z: 0.0
pt_4: 
  x: 4.147389449
  y: 0.689325195571
  z: 0.0
pt_5: 
  x: 1.35683359672
  y: -0.00157999609738
  z: 0.0
pt_6: 
  x: 4.14931383863
  y: 0.00787827662737
  z: 0.0
landmark_check: 1
---
header: 
  seq: 131
  stamp: 
    secs: 1008
    nsecs: 108000000
  frame_id: ''
pt_1: 
  x: 1.3656470114
  y: -0.656312792559
  z: 0.0
pt_2: 
  x: 4.15123822827
  y: -0.673568642316
  z: 0.0
pt_3: 
  x: 1.34802018204
  y: 0.653152800364
  z: 0.0
pt_4: 
  x: 4.147389449
  y: 0.689325195571
  z: 0.0
pt_5: 
  x: 1.35683359672
  y: -0.00157999609738
  z: 0.0
pt_6: 
  x: 4.14931383863
  y: 0.00787827662737
  z: 0.0
landmark_check: 1
---
header: 
  seq: 132
  stamp: 
    secs: 1008
    nsecs: 206000000
  frame_id: ''
pt_1: 
  x: 1.3656470114
  y: -0.656312792559
  z: 0.0
pt_2: 
  x: 4.15123822827
  y: -0.673568642316
  z: 0.0
pt_3: 
  x: 1.34802018204
  y: 0.653152800364
  z: 0.0
pt_4: 
  x: 4.147389449
  y: 0.689325195571
  z: 0.0
pt_5: 
  x: 1.35683359672
  y: -0.00157999609738
  z: 0.0
pt_6: 
  x: 4.14931383863
  y: 0.00787827662737
  z: 0.0
landmark_check: 1
---
header: 
  seq: 133
  stamp: 
    secs: 1008
    nsecs: 306000000
  frame_id: ''
pt_1: 
  x: 1.3656470114
  y: -0.656312792559
  z: 0.0
pt_2: 
  x: 4.15123822827
  y: -0.673568642316
  z: 0.0
pt_3: 
  x: 1.34802018204
  y: 0.653152800364
  z: 0.0
pt_4: 
  x: 4.147389449
  y: 0.689325195571
  z: 0.0
pt_5: 
  x: 1.35683359672
  y: -0.00157999609738
  z: 0.0
pt_6: 
  x: 4.14931383863
  y: 0.00787827662737
  z: 0.0
landmark_check: 1
---
header: 
  seq: 134
  stamp: 
    secs: 1008
    nsecs: 406000000
  frame_id: ''
pt_1: 
  x: 1.3656470114
  y: -0.656312792559
  z: 0.0
pt_2: 
  x: 4.15123822827
  y: -0.673568642316
  z: 0.0
pt_3: 
  x: 1.34802018204
  y: 0.653152800364
  z: 0.0
pt_4: 
  x: 4.147389449
  y: 0.689325195571
  z: 0.0
pt_5: 
  x: 1.35683359672
  y: -0.00157999609738
  z: 0.0
pt_6: 
  x: 4.14931383863
  y: 0.00787827662737
  z: 0.0
landmark_check: 1
---
header: 
  seq: 135
  stamp: 
    secs: 1008
    nsecs: 506000000
  frame_id: ''
pt_1: 
  x: 1.3656470114
  y: -0.656312792559
  z: 0.0
pt_2: 
  x: 4.15123822827
  y: -0.673568642316
  z: 0.0
pt_3: 
  x: 1.34802018204
  y: 0.653152800364
  z: 0.0
pt_4: 
  x: 4.147389449
  y: 0.689325195571
  z: 0.0
pt_5: 
  x: 1.35683359672
  y: -0.00157999609738
  z: 0.0
pt_6: 
  x: 4.14931383863
  y: 0.00787827662737
  z: 0.0
landmark_check: 1
---
header: 
  seq: 136
  stamp: 
    secs: 1008
    nsecs: 607000000
  frame_id: ''
pt_1: 
  x: 1.3656470114
  y: -0.656312792559
  z: 0.0
pt_2: 
  x: 4.15123822827
  y: -0.673568642316
  z: 0.0
pt_3: 
  x: 1.34802018204
  y: 0.653152800364
  z: 0.0
pt_4: 
  x: 4.147389449
  y: 0.689325195571
  z: 0.0
pt_5: 
  x: 1.35683359672
  y: -0.00157999609738
  z: 0.0
pt_6: 
  x: 4.14931383863
  y: 0.00787827662737
  z: 0.0
landmark_check: 1
---
header: 
  seq: 137
  stamp: 
    secs: 1008
    nsecs: 707000000
  frame_id: ''
pt_1: 
  x: 1.3656470114
  y: -0.656312792559
  z: 0.0
pt_2: 
  x: 4.15123822827
  y: -0.673568642316
  z: 0.0
pt_3: 
  x: 1.34802018204
  y: 0.653152800364
  z: 0.0
pt_4: 
  x: 4.147389449
  y: 0.689325195571
  z: 0.0
pt_5: 
  x: 1.35683359672
  y: -0.00157999609738
  z: 0.0
pt_6: 
  x: 4.14931383863
  y: 0.00787827662737
  z: 0.0
landmark_check: 1
---
header: 
  seq: 138
  stamp: 
    secs: 1008
    nsecs: 806000000
  frame_id: ''
pt_1: 
  x: 1.3656470114
  y: -0.656312792559
  z: 0.0
pt_2: 
  x: 4.15123822827
  y: -0.673568642316
  z: 0.0
pt_3: 
  x: 1.34802018204
  y: 0.653152800364
  z: 0.0
pt_4: 
  x: 4.147389449
  y: 0.689325195571
  z: 0.0
pt_5: 
  x: 1.35683359672
  y: -0.00157999609738
  z: 0.0
pt_6: 
  x: 4.14931383863
  y: 0.00787827662737
  z: 0.0
landmark_check: 1
---
header: 
  seq: 139
  stamp: 
    secs: 1008
    nsecs: 907000000
  frame_id: ''
pt_1: 
  x: 1.3656470114
  y: -0.656312792559
  z: 0.0
pt_2: 
  x: 4.15123822827
  y: -0.673568642316
  z: 0.0
pt_3: 
  x: 1.34802018204
  y: 0.653152800364
  z: 0.0
pt_4: 
  x: 4.147389449
  y: 0.689325195571
  z: 0.0
pt_5: 
  x: 1.35683359672
  y: -0.00157999609738
  z: 0.0
pt_6: 
  x: 4.14931383863
  y: 0.00787827662737
  z: 0.0
landmark_check: 1
---
header: 
  seq: 140
  stamp: 
    secs: 1009
    nsecs:   6000000
  frame_id: ''
pt_1: 
  x: 1.3656470114
  y: -0.656312792559
  z: 0.0
pt_2: 
  x: 4.15123822827
  y: -0.673568642316
  z: 0.0
pt_3: 
  x: 1.34802018204
  y: 0.653152800364
  z: 0.0
pt_4: 
  x: 4.147389449
  y: 0.689325195571
  z: 0.0
pt_5: 
  x: 1.35683359672
  y: -0.00157999609738
  z: 0.0
pt_6: 
  x: 4.14931383863
  y: 0.00787827662737
  z: 0.0
landmark_check: 1
---
header: 
  seq: 141
  stamp: 
    secs: 1009
    nsecs: 106000000
  frame_id: ''
pt_1: 
  x: 1.3656470114
  y: -0.656312792559
  z: 0.0
pt_2: 
  x: 4.15123822827
  y: -0.673568642316
  z: 0.0
pt_3: 
  x: 1.34802018204
  y: 0.653152800364
  z: 0.0
pt_4: 
  x: 4.147389449
  y: 0.689325195571
  z: 0.0
pt_5: 
  x: 1.35683359672
  y: -0.00157999609738
  z: 0.0
pt_6: 
  x: 4.14931383863
  y: 0.00787827662737
  z: 0.0
landmark_check: 1
---
header: 
  seq: 142
  stamp: 
    secs: 1009
    nsecs: 206000000
  frame_id: ''
pt_1: 
  x: 1.3656470114
  y: -0.656312792559
  z: 0.0
pt_2: 
  x: 4.15123822827
  y: -0.673568642316
  z: 0.0
pt_3: 
  x: 1.34802018204
  y: 0.653152800364
  z: 0.0
pt_4: 
  x: 4.147389449
  y: 0.689325195571
  z: 0.0
pt_5: 
  x: 1.35683359672
  y: -0.00157999609738
  z: 0.0
pt_6: 
  x: 4.14931383863
  y: 0.00787827662737
  z: 0.0
landmark_check: 1
---
header: 
  seq: 143
  stamp: 
    secs: 1009
    nsecs: 306000000
  frame_id: ''
pt_1: 
  x: 1.3656470114
  y: -0.656312792559
  z: 0.0
pt_2: 
  x: 4.15123822827
  y: -0.673568642316
  z: 0.0
pt_3: 
  x: 1.34802018204
  y: 0.653152800364
  z: 0.0
pt_4: 
  x: 4.147389449
  y: 0.689325195571
  z: 0.0
pt_5: 
  x: 1.35683359672
  y: -0.00157999609738
  z: 0.0
pt_6: 
  x: 4.14931383863
  y: 0.00787827662737
  z: 0.0
landmark_check: 1
---
header: 
  seq: 144
  stamp: 
    secs: 1009
    nsecs: 407000000
  frame_id: ''
pt_1: 
  x: 1.3656470114
  y: -0.656312792559
  z: 0.0
pt_2: 
  x: 4.15123822827
  y: -0.673568642316
  z: 0.0
pt_3: 
  x: 1.34802018204
  y: 0.653152800364
  z: 0.0
pt_4: 
  x: 4.147389449
  y: 0.689325195571
  z: 0.0
pt_5: 
  x: 1.35683359672
  y: -0.00157999609738
  z: 0.0
pt_6: 
  x: 4.14931383863
  y: 0.00787827662737
  z: 0.0
landmark_check: 1
---
header: 
  seq: 145
  stamp: 
    secs: 1009
    nsecs: 506000000
  frame_id: ''
pt_1: 
  x: 1.3656470114
  y: -0.656312792559
  z: 0.0
pt_2: 
  x: 4.15123822827
  y: -0.673568642316
  z: 0.0
pt_3: 
  x: 1.34802018204
  y: 0.653152800364
  z: 0.0
pt_4: 
  x: 4.147389449
  y: 0.689325195571
  z: 0.0
pt_5: 
  x: 1.35683359672
  y: -0.00157999609738
  z: 0.0
pt_6: 
  x: 4.14931383863
  y: 0.00787827662737
  z: 0.0
landmark_check: 1
---
header: 
  seq: 146
  stamp: 
    secs: 1009
    nsecs: 606000000
  frame_id: ''
pt_1: 
  x: 1.3656470114
  y: -0.656312792559
  z: 0.0
pt_2: 
  x: 4.15123822827
  y: -0.673568642316
  z: 0.0
pt_3: 
  x: 1.34802018204
  y: 0.653152800364
  z: 0.0
pt_4: 
  x: 4.147389449
  y: 0.689325195571
  z: 0.0
pt_5: 
  x: 1.35683359672
  y: -0.00157999609738
  z: 0.0
pt_6: 
  x: 4.14931383863
  y: 0.00787827662737
  z: 0.0
landmark_check: 1
---
header: 
  seq: 147
  stamp: 
    secs: 1009
    nsecs: 706000000
  frame_id: ''
pt_1: 
  x: 1.3656470114
  y: -0.656312792559
  z: 0.0
pt_2: 
  x: 4.15123822827
  y: -0.673568642316
  z: 0.0
pt_3: 
  x: 1.34802018204
  y: 0.653152800364
  z: 0.0
pt_4: 
  x: 4.147389449
  y: 0.689325195571
  z: 0.0
pt_5: 
  x: 1.35683359672
  y: -0.00157999609738
  z: 0.0
pt_6: 
  x: 4.14931383863
  y: 0.00787827662737
  z: 0.0
landmark_check: 1
---
header: 
  seq: 148
  stamp: 
    secs: 1009
    nsecs: 806000000
  frame_id: ''
pt_1: 
  x: 1.3656470114
  y: -0.656312792559
  z: 0.0
pt_2: 
  x: 4.15123822827
  y: -0.673568642316
  z: 0.0
pt_3: 
  x: 1.34802018204
  y: 0.653152800364
  z: 0.0
pt_4: 
  x: 4.147389449
  y: 0.689325195571
  z: 0.0
pt_5: 
  x: 1.35683359672
  y: -0.00157999609738
  z: 0.0
pt_6: 
  x: 4.14931383863
  y: 0.00787827662737
  z: 0.0
landmark_check: 1
---
header: 
  seq: 149
  stamp: 
    secs: 1009
    nsecs: 906000000
  frame_id: ''
pt_1: 
  x: 1.3656470114
  y: -0.656312792559
  z: 0.0
pt_2: 
  x: 4.15123822827
  y: -0.673568642316
  z: 0.0
pt_3: 
  x: 1.34802018204
  y: 0.653152800364
  z: 0.0
pt_4: 
  x: 4.147389449
  y: 0.689325195571
  z: 0.0
pt_5: 
  x: 1.35683359672
  y: -0.00157999609738
  z: 0.0
pt_6: 
  x: 4.14931383863
  y: 0.00787827662737
  z: 0.0
landmark_check: 1
---
header: 
  seq: 150
  stamp: 
    secs: 1010
    nsecs:   6000000
  frame_id: ''
pt_1: 
  x: 1.3656470114
  y: -0.656312792559
  z: 0.0
pt_2: 
  x: 4.15123822827
  y: -0.673568642316
  z: 0.0
pt_3: 
  x: 1.34802018204
  y: 0.653152800364
  z: 0.0
pt_4: 
  x: 4.147389449
  y: 0.689325195571
  z: 0.0
pt_5: 
  x: 1.35683359672
  y: -0.00157999609738
  z: 0.0
pt_6: 
  x: 4.14931383863
  y: 0.00787827662737
  z: 0.0
landmark_check: 1
---
header: 
  seq: 151
  stamp: 
    secs: 1010
    nsecs: 106000000
  frame_id: ''
pt_1: 
  x: 1.3656470114
  y: -0.656312792559
  z: 0.0
pt_2: 
  x: 4.15123822827
  y: -0.673568642316
  z: 0.0
pt_3: 
  x: 1.34802018204
  y: 0.653152800364
  z: 0.0
pt_4: 
  x: 4.147389449
  y: 0.689325195571
  z: 0.0
pt_5: 
  x: 1.35683359672
  y: -0.00157999609738
  z: 0.0
pt_6: 
  x: 4.14931383863
  y: 0.00787827662737
  z: 0.0
landmark_check: 1
---
header: 
  seq: 152
  stamp: 
    secs: 1010
    nsecs: 206000000
  frame_id: ''
pt_1: 
  x: 1.3656470114
  y: -0.656312792559
  z: 0.0
pt_2: 
  x: 4.15123822827
  y: -0.673568642316
  z: 0.0
pt_3: 
  x: 1.34802018204
  y: 0.653152800364
  z: 0.0
pt_4: 
  x: 4.147389449
  y: 0.689325195571
  z: 0.0
pt_5: 
  x: 1.35683359672
  y: -0.00157999609738
  z: 0.0
pt_6: 
  x: 4.14931383863
  y: 0.00787827662737
  z: 0.0
landmark_check: 1
---
header: 
  seq: 153
  stamp: 
    secs: 1010
    nsecs: 306000000
  frame_id: ''
pt_1: 
  x: 1.3656470114
  y: -0.656312792559
  z: 0.0
pt_2: 
  x: 4.15123822827
  y: -0.673568642316
  z: 0.0
pt_3: 
  x: 1.34802018204
  y: 0.653152800364
  z: 0.0
pt_4: 
  x: 4.147389449
  y: 0.689325195571
  z: 0.0
pt_5: 
  x: 1.35683359672
  y: -0.00157999609738
  z: 0.0
pt_6: 
  x: 4.14931383863
  y: 0.00787827662737
  z: 0.0
landmark_check: 1
---
header: 
  seq: 154
  stamp: 
    secs: 1010
    nsecs: 406000000
  frame_id: ''
pt_1: 
  x: 1.3656470114
  y: -0.656312792559
  z: 0.0
pt_2: 
  x: 4.15123822827
  y: -0.673568642316
  z: 0.0
pt_3: 
  x: 1.34802018204
  y: 0.653152800364
  z: 0.0
pt_4: 
  x: 4.147389449
  y: 0.689325195571
  z: 0.0
pt_5: 
  x: 1.35683359672
  y: -0.00157999609738
  z: 0.0
pt_6: 
  x: 4.14931383863
  y: 0.00787827662737
  z: 0.0
landmark_check: 1
---
header: 
  seq: 155
  stamp: 
    secs: 1010
    nsecs: 506000000
  frame_id: ''
pt_1: 
  x: 1.3656470114
  y: -0.656312792559
  z: 0.0
pt_2: 
  x: 4.15123822827
  y: -0.673568642316
  z: 0.0
pt_3: 
  x: 1.34802018204
  y: 0.653152800364
  z: 0.0
pt_4: 
  x: 4.147389449
  y: 0.689325195571
  z: 0.0
pt_5: 
  x: 1.35683359672
  y: -0.00157999609738
  z: 0.0
pt_6: 
  x: 4.14931383863
  y: 0.00787827662737
  z: 0.0
landmark_check: 1
---
header: 
  seq: 156
  stamp: 
    secs: 1010
    nsecs: 606000000
  frame_id: ''
pt_1: 
  x: 1.3656470114
  y: -0.656312792559
  z: 0.0
pt_2: 
  x: 4.15123822827
  y: -0.673568642316
  z: 0.0
pt_3: 
  x: 1.34802018204
  y: 0.653152800364
  z: 0.0
pt_4: 
  x: 4.147389449
  y: 0.689325195571
  z: 0.0
pt_5: 
  x: 1.35683359672
  y: -0.00157999609738
  z: 0.0
pt_6: 
  x: 4.14931383863
  y: 0.00787827662737
  z: 0.0
landmark_check: 1
---
header: 
  seq: 157
  stamp: 
    secs: 1010
    nsecs: 706000000
  frame_id: ''
pt_1: 
  x: 1.3656470114
  y: -0.656312792559
  z: 0.0
pt_2: 
  x: 4.15123822827
  y: -0.673568642316
  z: 0.0
pt_3: 
  x: 1.34802018204
  y: 0.653152800364
  z: 0.0
pt_4: 
  x: 4.147389449
  y: 0.689325195571
  z: 0.0
pt_5: 
  x: 1.35683359672
  y: -0.00157999609738
  z: 0.0
pt_6: 
  x: 4.14931383863
  y: 0.00787827662737
  z: 0.0
landmark_check: 1
---
header: 
  seq: 158
  stamp: 
    secs: 1010
    nsecs: 806000000
  frame_id: ''
pt_1: 
  x: 1.3656470114
  y: -0.656312792559
  z: 0.0
pt_2: 
  x: 4.15123822827
  y: -0.673568642316
  z: 0.0
pt_3: 
  x: 1.34802018204
  y: 0.653152800364
  z: 0.0
pt_4: 
  x: 4.147389449
  y: 0.689325195571
  z: 0.0
pt_5: 
  x: 1.35683359672
  y: -0.00157999609738
  z: 0.0
pt_6: 
  x: 4.14931383863
  y: 0.00787827662737
  z: 0.0
landmark_check: 1
---
header: 
  seq: 159
  stamp: 
    secs: 1010
    nsecs: 906000000
  frame_id: ''
pt_1: 
  x: 1.3656470114
  y: -0.656312792559
  z: 0.0
pt_2: 
  x: 4.15123822827
  y: -0.673568642316
  z: 0.0
pt_3: 
  x: 1.34802018204
  y: 0.653152800364
  z: 0.0
pt_4: 
  x: 4.147389449
  y: 0.689325195571
  z: 0.0
pt_5: 
  x: 1.35683359672
  y: -0.00157999609738
  z: 0.0
pt_6: 
  x: 4.14931383863
  y: 0.00787827662737
  z: 0.0
landmark_check: 1
---
header: 
  seq: 160
  stamp: 
    secs: 1011
    nsecs:   6000000
  frame_id: ''
pt_1: 
  x: 1.3656470114
  y: -0.656312792559
  z: 0.0
pt_2: 
  x: 4.15123822827
  y: -0.673568642316
  z: 0.0
pt_3: 
  x: 1.34802018204
  y: 0.653152800364
  z: 0.0
pt_4: 
  x: 4.147389449
  y: 0.689325195571
  z: 0.0
pt_5: 
  x: 1.35683359672
  y: -0.00157999609738
  z: 0.0
pt_6: 
  x: 4.14931383863
  y: 0.00787827662737
  z: 0.0
landmark_check: 1
---
header: 
  seq: 161
  stamp: 
    secs: 1011
    nsecs: 106000000
  frame_id: ''
pt_1: 
  x: 1.3656470114
  y: -0.656312792559
  z: 0.0
pt_2: 
  x: 4.15123822827
  y: -0.673568642316
  z: 0.0
pt_3: 
  x: 1.34802018204
  y: 0.653152800364
  z: 0.0
pt_4: 
  x: 4.147389449
  y: 0.689325195571
  z: 0.0
pt_5: 
  x: 1.35683359672
  y: -0.00157999609738
  z: 0.0
pt_6: 
  x: 4.14931383863
  y: 0.00787827662737
  z: 0.0
landmark_check: 1
---
header: 
  seq: 162
  stamp: 
    secs: 1011
    nsecs: 206000000
  frame_id: ''
pt_1: 
  x: 1.3656470114
  y: -0.656312792559
  z: 0.0
pt_2: 
  x: 4.15123822827
  y: -0.673568642316
  z: 0.0
pt_3: 
  x: 1.34802018204
  y: 0.653152800364
  z: 0.0
pt_4: 
  x: 4.147389449
  y: 0.689325195571
  z: 0.0
pt_5: 
  x: 1.35683359672
  y: -0.00157999609738
  z: 0.0
pt_6: 
  x: 4.14931383863
  y: 0.00787827662737
  z: 0.0
landmark_check: 1
---
header: 
  seq: 163
  stamp: 
    secs: 1011
    nsecs: 307000000
  frame_id: ''
pt_1: 
  x: 1.3656470114
  y: -0.656312792559
  z: 0.0
pt_2: 
  x: 4.15123822827
  y: -0.673568642316
  z: 0.0
pt_3: 
  x: 1.34802018204
  y: 0.653152800364
  z: 0.0
pt_4: 
  x: 4.147389449
  y: 0.689325195571
  z: 0.0
pt_5: 
  x: 1.35683359672
  y: -0.00157999609738
  z: 0.0
pt_6: 
  x: 4.14931383863
  y: 0.00787827662737
  z: 0.0
landmark_check: 1
---
header: 
  seq: 164
  stamp: 
    secs: 1011
    nsecs: 406000000
  frame_id: ''
pt_1: 
  x: 1.3656470114
  y: -0.656312792559
  z: 0.0
pt_2: 
  x: 4.15123822827
  y: -0.673568642316
  z: 0.0
pt_3: 
  x: 1.34802018204
  y: 0.653152800364
  z: 0.0
pt_4: 
  x: 4.147389449
  y: 0.689325195571
  z: 0.0
pt_5: 
  x: 1.35683359672
  y: -0.00157999609738
  z: 0.0
pt_6: 
  x: 4.14931383863
  y: 0.00787827662737
  z: 0.0
landmark_check: 1
---
header: 
  seq: 165
  stamp: 
    secs: 1011
    nsecs: 506000000
  frame_id: ''
pt_1: 
  x: 1.3656470114
  y: -0.656312792559
  z: 0.0
pt_2: 
  x: 4.15123822827
  y: -0.673568642316
  z: 0.0
pt_3: 
  x: 1.34802018204
  y: 0.653152800364
  z: 0.0
pt_4: 
  x: 4.147389449
  y: 0.689325195571
  z: 0.0
pt_5: 
  x: 1.35683359672
  y: -0.00157999609738
  z: 0.0
pt_6: 
  x: 4.14931383863
  y: 0.00787827662737
  z: 0.0
landmark_check: 1
---
header: 
  seq: 166
  stamp: 
    secs: 1011
    nsecs: 606000000
  frame_id: ''
pt_1: 
  x: 1.3656470114
  y: -0.656312792559
  z: 0.0
pt_2: 
  x: 4.15123822827
  y: -0.673568642316
  z: 0.0
pt_3: 
  x: 1.34802018204
  y: 0.653152800364
  z: 0.0
pt_4: 
  x: 4.147389449
  y: 0.689325195571
  z: 0.0
pt_5: 
  x: 1.35683359672
  y: -0.00157999609738
  z: 0.0
pt_6: 
  x: 4.14931383863
  y: 0.00787827662737
  z: 0.0
landmark_check: 1
---
header: 
  seq: 167
  stamp: 
    secs: 1011
    nsecs: 706000000
  frame_id: ''
pt_1: 
  x: 1.3656470114
  y: -0.656312792559
  z: 0.0
pt_2: 
  x: 4.15123822827
  y: -0.673568642316
  z: 0.0
pt_3: 
  x: 1.34802018204
  y: 0.653152800364
  z: 0.0
pt_4: 
  x: 4.147389449
  y: 0.689325195571
  z: 0.0
pt_5: 
  x: 1.35683359672
  y: -0.00157999609738
  z: 0.0
pt_6: 
  x: 4.14931383863
  y: 0.00787827662737
  z: 0.0
landmark_check: 1
---
header: 
  seq: 168
  stamp: 
    secs: 1011
    nsecs: 806000000
  frame_id: ''
pt_1: 
  x: 1.3656470114
  y: -0.656312792559
  z: 0.0
pt_2: 
  x: 4.15123822827
  y: -0.673568642316
  z: 0.0
pt_3: 
  x: 1.34802018204
  y: 0.653152800364
  z: 0.0
pt_4: 
  x: 4.147389449
  y: 0.689325195571
  z: 0.0
pt_5: 
  x: 1.35683359672
  y: -0.00157999609738
  z: 0.0
pt_6: 
  x: 4.14931383863
  y: 0.00787827662737
  z: 0.0
landmark_check: 1
---
header: 
  seq: 169
  stamp: 
    secs: 1011
    nsecs: 906000000
  frame_id: ''
pt_1: 
  x: 1.3656470114
  y: -0.656312792559
  z: 0.0
pt_2: 
  x: 4.15123822827
  y: -0.673568642316
  z: 0.0
pt_3: 
  x: 1.34802018204
  y: 0.653152800364
  z: 0.0
pt_4: 
  x: 4.147389449
  y: 0.689325195571
  z: 0.0
pt_5: 
  x: 1.35683359672
  y: -0.00157999609738
  z: 0.0
pt_6: 
  x: 4.14931383863
  y: 0.00787827662737
  z: 0.0
landmark_check: 1
---
header: 
  seq: 170
  stamp: 
    secs: 1012
    nsecs:   6000000
  frame_id: ''
pt_1: 
  x: 1.3656470114
  y: -0.656312792559
  z: 0.0
pt_2: 
  x: 4.15123822827
  y: -0.673568642316
  z: 0.0
pt_3: 
  x: 1.34802018204
  y: 0.653152800364
  z: 0.0
pt_4: 
  x: 4.147389449
  y: 0.689325195571
  z: 0.0
pt_5: 
  x: 1.35683359672
  y: -0.00157999609738
  z: 0.0
pt_6: 
  x: 4.14931383863
  y: 0.00787827662737
  z: 0.0
landmark_check: 1
---
header: 
  seq: 171
  stamp: 
    secs: 1012
    nsecs: 106000000
  frame_id: ''
pt_1: 
  x: 1.3656470114
  y: -0.656312792559
  z: 0.0
pt_2: 
  x: 4.15123822827
  y: -0.673568642316
  z: 0.0
pt_3: 
  x: 1.34802018204
  y: 0.653152800364
  z: 0.0
pt_4: 
  x: 4.147389449
  y: 0.689325195571
  z: 0.0
pt_5: 
  x: 1.35683359672
  y: -0.00157999609738
  z: 0.0
pt_6: 
  x: 4.14931383863
  y: 0.00787827662737
  z: 0.0
landmark_check: 1
---
header: 
  seq: 172
  stamp: 
    secs: 1012
    nsecs: 206000000
  frame_id: ''
pt_1: 
  x: 1.3656470114
  y: -0.656312792559
  z: 0.0
pt_2: 
  x: 4.15123822827
  y: -0.673568642316
  z: 0.0
pt_3: 
  x: 1.34802018204
  y: 0.653152800364
  z: 0.0
pt_4: 
  x: 4.147389449
  y: 0.689325195571
  z: 0.0
pt_5: 
  x: 1.35683359672
  y: -0.00157999609738
  z: 0.0
pt_6: 
  x: 4.14931383863
  y: 0.00787827662737
  z: 0.0
landmark_check: 1
---
header: 
  seq: 173
  stamp: 
    secs: 1012
    nsecs: 306000000
  frame_id: ''
pt_1: 
  x: 1.3656470114
  y: -0.656312792559
  z: 0.0
pt_2: 
  x: 4.15123822827
  y: -0.673568642316
  z: 0.0
pt_3: 
  x: 1.34802018204
  y: 0.653152800364
  z: 0.0
pt_4: 
  x: 4.147389449
  y: 0.689325195571
  z: 0.0
pt_5: 
  x: 1.35683359672
  y: -0.00157999609738
  z: 0.0
pt_6: 
  x: 4.14931383863
  y: 0.00787827662737
  z: 0.0
landmark_check: 1
---
header: 
  seq: 174
  stamp: 
    secs: 1012
    nsecs: 407000000
  frame_id: ''
pt_1: 
  x: 1.3656470114
  y: -0.656312792559
  z: 0.0
pt_2: 
  x: 4.15123822827
  y: -0.673568642316
  z: 0.0
pt_3: 
  x: 1.34802018204
  y: 0.653152800364
  z: 0.0
pt_4: 
  x: 4.147389449
  y: 0.689325195571
  z: 0.0
pt_5: 
  x: 1.35683359672
  y: -0.00157999609738
  z: 0.0
pt_6: 
  x: 4.14931383863
  y: 0.00787827662737
  z: 0.0
landmark_check: 1
---
header: 
  seq: 175
  stamp: 
    secs: 1012
    nsecs: 506000000
  frame_id: ''
pt_1: 
  x: 1.3656470114
  y: -0.656312792559
  z: 0.0
pt_2: 
  x: 4.15123822827
  y: -0.673568642316
  z: 0.0
pt_3: 
  x: 1.34802018204
  y: 0.653152800364
  z: 0.0
pt_4: 
  x: 4.147389449
  y: 0.689325195571
  z: 0.0
pt_5: 
  x: 1.35683359672
  y: -0.00157999609738
  z: 0.0
pt_6: 
  x: 4.14931383863
  y: 0.00787827662737
  z: 0.0
landmark_check: 1
---
header: 
  seq: 176
  stamp: 
    secs: 1012
    nsecs: 606000000
  frame_id: ''
pt_1: 
  x: 1.3656470114
  y: -0.656312792559
  z: 0.0
pt_2: 
  x: 4.15123822827
  y: -0.673568642316
  z: 0.0
pt_3: 
  x: 1.34802018204
  y: 0.653152800364
  z: 0.0
pt_4: 
  x: 4.147389449
  y: 0.689325195571
  z: 0.0
pt_5: 
  x: 1.35683359672
  y: -0.00157999609738
  z: 0.0
pt_6: 
  x: 4.14931383863
  y: 0.00787827662737
  z: 0.0
landmark_check: 1
---
header: 
  seq: 177
  stamp: 
    secs: 1012
    nsecs: 706000000
  frame_id: ''
pt_1: 
  x: 1.3656470114
  y: -0.656312792559
  z: 0.0
pt_2: 
  x: 4.15123822827
  y: -0.673568642316
  z: 0.0
pt_3: 
  x: 1.34802018204
  y: 0.653152800364
  z: 0.0
pt_4: 
  x: 4.147389449
  y: 0.689325195571
  z: 0.0
pt_5: 
  x: 1.35683359672
  y: -0.00157999609738
  z: 0.0
pt_6: 
  x: 4.14931383863
  y: 0.00787827662737
  z: 0.0
landmark_check: 1
---
header: 
  seq: 178
  stamp: 
    secs: 1012
    nsecs: 806000000
  frame_id: ''
pt_1: 
  x: 1.3656470114
  y: -0.656312792559
  z: 0.0
pt_2: 
  x: 4.15123822827
  y: -0.673568642316
  z: 0.0
pt_3: 
  x: 1.34802018204
  y: 0.653152800364
  z: 0.0
pt_4: 
  x: 4.147389449
  y: 0.689325195571
  z: 0.0
pt_5: 
  x: 1.35683359672
  y: -0.00157999609738
  z: 0.0
pt_6: 
  x: 4.14931383863
  y: 0.00787827662737
  z: 0.0
landmark_check: 1
---
header: 
  seq: 179
  stamp: 
    secs: 1012
    nsecs: 906000000
  frame_id: ''
pt_1: 
  x: 1.3656470114
  y: -0.656312792559
  z: 0.0
pt_2: 
  x: 4.15123822827
  y: -0.673568642316
  z: 0.0
pt_3: 
  x: 1.34802018204
  y: 0.653152800364
  z: 0.0
pt_4: 
  x: 4.147389449
  y: 0.689325195571
  z: 0.0
pt_5: 
  x: 1.35683359672
  y: -0.00157999609738
  z: 0.0
pt_6: 
  x: 4.14931383863
  y: 0.00787827662737
  z: 0.0
landmark_check: 1
---
header: 
  seq: 180
  stamp: 
    secs: 1013
    nsecs:   7000000
  frame_id: ''
pt_1: 
  x: 1.3656470114
  y: -0.656312792559
  z: 0.0
pt_2: 
  x: 4.15123822827
  y: -0.673568642316
  z: 0.0
pt_3: 
  x: 1.34802018204
  y: 0.653152800364
  z: 0.0
pt_4: 
  x: 4.147389449
  y: 0.689325195571
  z: 0.0
pt_5: 
  x: 1.35683359672
  y: -0.00157999609738
  z: 0.0
pt_6: 
  x: 4.14931383863
  y: 0.00787827662737
  z: 0.0
landmark_check: 1
---
header: 
  seq: 181
  stamp: 
    secs: 1013
    nsecs: 107000000
  frame_id: ''
pt_1: 
  x: 1.3656470114
  y: -0.656312792559
  z: 0.0
pt_2: 
  x: 4.15123822827
  y: -0.673568642316
  z: 0.0
pt_3: 
  x: 1.34802018204
  y: 0.653152800364
  z: 0.0
pt_4: 
  x: 4.147389449
  y: 0.689325195571
  z: 0.0
pt_5: 
  x: 1.35683359672
  y: -0.00157999609738
  z: 0.0
pt_6: 
  x: 4.14931383863
  y: 0.00787827662737
  z: 0.0
landmark_check: 1
---
header: 
  seq: 182
  stamp: 
    secs: 1013
    nsecs: 206000000
  frame_id: ''
pt_1: 
  x: 1.3656470114
  y: -0.656312792559
  z: 0.0
pt_2: 
  x: 4.15123822827
  y: -0.673568642316
  z: 0.0
pt_3: 
  x: 1.34802018204
  y: 0.653152800364
  z: 0.0
pt_4: 
  x: 4.147389449
  y: 0.689325195571
  z: 0.0
pt_5: 
  x: 1.35683359672
  y: -0.00157999609738
  z: 0.0
pt_6: 
  x: 4.14931383863
  y: 0.00787827662737
  z: 0.0
landmark_check: 1
---
header: 
  seq: 183
  stamp: 
    secs: 1013
    nsecs: 306000000
  frame_id: ''
pt_1: 
  x: 1.3656470114
  y: -0.656312792559
  z: 0.0
pt_2: 
  x: 4.15123822827
  y: -0.673568642316
  z: 0.0
pt_3: 
  x: 1.34802018204
  y: 0.653152800364
  z: 0.0
pt_4: 
  x: 4.147389449
  y: 0.689325195571
  z: 0.0
pt_5: 
  x: 1.35683359672
  y: -0.00157999609738
  z: 0.0
pt_6: 
  x: 4.14931383863
  y: 0.00787827662737
  z: 0.0
landmark_check: 1
---
